$GPGGA,084420.963,5109.8198,N,01653.4319,E,0,03,,-42.7,M,42.7,M,,0000*60
$GPGLL,5109.8198,N,01653.4319,E,084420.963,V,N*4C
$GPGSA,A,1,29,05,21,,,,,,,,,,,,*13
$GPRMC,084420.963,V,5109.8198,N,01653.4319,E,,,161013,,,N*7F
$GPGGA,084421.963,5109.8201,N,01653.4313,E,0,03,,-42.7,M,42.7,M,,0000*68
$GPGLL,5109.8201,N,01653.4313,E,084421.963,V,N*44
$GPGSA,A,1,29,05,21,,,,,,,,,,,,*13
$GPRMC,084421.963,V,5109.8201,N,01653.4313,E,,,161013,,,N*77
$GPGGA,084422.963,5109.8203,N,01653.4307,E,0,03,,-42.7,M,42.7,M,,0000*6C
$GPGLL,5109.8203,N,01653.4307,E,084422.963,V,N*40
$GPGSA,A,1,29,05,21,,,,,,,,,,,,*13
$GPGSV,3,1,11,29,63,069,31,21,45,190,28,05,23,063,34,24,59,086,*7A
$GPGSV,3,2,11,19,44,258,,31,33,216,26,30,12,131,,13,04,349,*77
$GPGSV,3,3,11,23,04,301,,10,01,016,,12,01,129,*41
$GPRMC,084422.963,V,5109.8203,N,01653.4307,E,,,161013,,,N*73
$GPGGA,084423.963,5109.8205,N,01653.4303,E,0,03,,-42.7,M,42.7,M,,0000*6F
$GPGLL,5109.8205,N,01653.4303,E,084423.963,V,N*43
$GPGSA,A,1,29,05,21,,,,,,,,,,,,*13
$GPRMC,084423.963,V,5109.8205,N,01653.4303,E,,,161013,,,N*70
$GPGGA,084424.963,5109.8206,N,01653.4300,E,0,03,,-42.7,M,42.7,M,,0000*68
$GPGLL,5109.8206,N,01653.4300,E,084424.963,V,N*44
$GPGSA,A,1,29,05,21,,,,,,,,,,,,*13
$GPRMC,084424.963,V,5109.8206,N,01653.4300,E,,,161013,,,N*77
$GPGGA,084425.963,5109.8209,N,01653.4296,E,0,03,,-42.7,M,42.7,M,,0000*68
$GPGLL,5109.8209,N,01653.4296,E,084425.963,V,N*44
$GPGSA,A,1,29,05,21,,,,,,,,,,,,*13
$GPRMC,084425.963,V,5109.8209,N,01653.4296,E,,,161013,,,N*77
$GPGGA,084426.963,5109.8210,N,01653.4292,E,0,03,,-42.7,M,42.7,M,,0000*67
$GPGLL,5109.8210,N,01653.4292,E,084426.963,V,N*4B
$GPGSA,A,1,29,05,21,,,,,,,,,,,,*13
$GPRMC,084426.963,V,5109.8210,N,01653.4292,E,,,161013,,,N*78
$GPGGA,084427.963,5109.8213,N,01653.4287,E,0,03,,-42.7,M,42.7,M,,0000*61
$GPGLL,5109.8213,N,01653.4287,E,084427.963,V,N*4D
$GPGSA,A,1,29,05,21,,,,,,,,,,,,*13
$GPGSV,3,1,11,29,63,069,31,21,45,190,28,05,23,063,34,24,59,086,*7A
$GPGSV,3,2,11,19,44,258,,31,33,216,27,30,12,131,,13,04,349,*76
$GPGSV,3,3,11,23,04,301,,10,01,016,,12,01,129,*41
$GPRMC,084427.963,V,5109.8213,N,01653.4287,E,,,161013,,,N*7E
$GPGGA,084428.963,5109.8216,N,01653.4281,E,0,03,,-42.7,M,42.7,M,,0000*6D
$GPGLL,5109.8216,N,01653.4281,E,084428.963,V,N*41
$GPGSA,A,1,29,05,21,,,,,,,,,,,,*13
$GPRMC,084428.963,V,5109.8216,N,01653.4281,E,,,161013,,,N*72
$GPGGA,084429.963,5109.8219,N,01653.4276,E,0,03,,-42.7,M,42.7,M,,0000*6B
$GPGLL,5109.8219,N,01653.4276,E,084429.963,V,N*47
$GPGSA,A,1,29,05,21,,,,,,,,,,,,*13
$GPRMC,084429.963,V,5109.8219,N,01653.4276,E,,,161013,,,N*74
$GPGGA,084430.963,5109.8221,N,01653.4272,E,0,03,,-42.7,M,42.7,M,,0000*6C
$GPGLL,5109.8221,N,01653.4272,E,084430.963,V,N*40
$GPGSA,A,1,29,05,21,,,,,,,,,,,,*13
$GPRMC,084430.963,V,5109.8221,N,01653.4272,E,,,161013,,,N*73
$GPGGA,084431.963,5109.8223,N,01653.4268,E,0,03,,-42.7,M,42.7,M,,0000*64
$GPGLL,5109.8223,N,01653.4268,E,084431.963,V,N*48
$GPGSA,A,1,29,05,21,,,,,,,,,,,,*13
$GPRMC,084431.963,V,5109.8223,N,01653.4268,E,,,161013,,,N*7B
$GPGGA,084432.963,5109.8225,N,01653.4264,E,0,03,,-42.7,M,42.7,M,,0000*6D
$GPGLL,5109.8225,N,01653.4264,E,084432.963,V,N*41
$GPGSA,A,1,29,05,21,,,,,,,,,,,,*13
$GPGSV,3,1,11,29,63,069,30,21,45,190,27,05,23,063,34,24,59,086,*74
$GPGSV,3,2,11,19,44,258,,31,33,216,27,30,12,131,,13,04,349,*76
$GPGSV,3,3,11,23,04,301,,10,01,016,,12,01,129,*41
$GPRMC,084432.963,V,5109.8225,N,01653.4264,E,,,161013,,,N*72
$GPGGA,084433.963,5109.8226,N,01653.4260,E,0,03,,-42.7,M,42.7,M,,0000*6B
$GPGLL,5109.8226,N,01653.4260,E,084433.963,V,N*47
$GPGSA,A,1,29,05,21,,,,,,,,,,,,*13
$GPRMC,084433.963,V,5109.8226,N,01653.4260,E,,,161013,,,N*74
$GPGGA,084434.963,5109.8229,N,01653.4255,E,0,03,,-42.7,M,42.7,M,,0000*65
$GPGLL,5109.8229,N,01653.4255,E,084434.963,V,N*49
$GPGSA,A,1,29,05,21,,,,,,,,,,,,*13
$GPRMC,084434.963,V,5109.8229,N,01653.4255,E,,,161013,,,N*7A
$GPGGA,084435.967,5109.8229,N,01653.4254,E,0,03,,-42.7,M,42.7,M,,0000*61
$GPGLL,5109.8229,N,01653.4254,E,084435.967,V,N*4D
$GPGSA,A,1,29,05,21,,,,,,,,,,,,*13
$GPRMC,084435.967,V,5109.8229,N,01653.4254,E,,,161013,,,N*7E
$GPGGA,084436.963,5109.8231,N,01653.4250,E,0,03,,-42.7,M,42.7,M,,0000*6B
$GPGLL,5109.8231,N,01653.4250,E,084436.963,V,N*47
$GPGSA,A,1,29,05,21,,,,,,,,,,,,*13
$GPRMC,084436.963,V,5109.8231,N,01653.4250,E,,,161013,,,N*74
$GPGGA,084437.963,5109.8231,N,01653.4248,E,0,03,,-42.7,M,42.7,M,,0000*63
$GPGLL,5109.8231,N,01653.4248,E,084437.963,V,N*4F
$GPGSA,A,1,29,05,21,,,,,,,,,,,,*13
$GPGSV,3,1,11,29,63,069,30,21,45,190,27,05,23,063,34,24,59,086,*74
$GPGSV,3,2,11,19,44,258,,31,33,216,27,30,12,131,,13,04,349,*76
$GPGSV,3,3,11,23,04,301,,10,01,016,,12,01,129,*41
$GPRMC,084437.963,V,5109.8231,N,01653.4248,E,,,161013,,,N*7C
$GPGGA,084438.963,5109.8233,N,01653.4245,E,0,03,,-42.7,M,42.7,M,,0000*63
$GPGLL,5109.8233,N,01653.4245,E,084438.963,V,N*4F
$GPGSA,A,1,29,05,21,,,,,,,,,,,,*13
$GPRMC,084438.963,V,5109.8233,N,01653.4245,E,,,161013,,,N*7C
$GPGGA,084439.963,5109.8234,N,01653.4242,E,0,03,,-42.7,M,42.7,M,,0000*62
$GPGLL,5109.8234,N,01653.4242,E,084439.963,V,N*4E
$GPGSA,A,1,29,05,21,,,,,,,,,,,,*13
$GPRMC,084439.963,V,5109.8234,N,01653.4242,E,,,161013,,,N*7D
$GPGGA,084440.963,5109.8235,N,01653.4239,E,0,03,,-42.7,M,42.7,M,,0000*61
$GPGLL,5109.8235,N,01653.4239,E,084440.963,V,N*4D
$GPGSA,A,1,29,05,21,,,,,,,,,,,,*13
$GPRMC,084440.963,V,5109.8235,N,01653.4239,E,,,161013,,,N*7E
$GPGGA,084441.963,5109.8237,N,01653.4236,E,0,03,,-42.7,M,42.7,M,,0000*6D
$GPGLL,5109.8237,N,01653.4236,E,084441.963,V,N*41
$GPGSA,A,1,29,05,21,,,,,,,,,,,,*13
$GPRMC,084441.963,V,5109.8237,N,01653.4236,E,,,161013,,,N*72
$GPGGA,084442.963,5109.8239,N,01653.4231,E,0,03,,-42.7,M,42.7,M,,0000*67
$GPGLL,5109.8239,N,01653.4231,E,084442.963,V,N*4B
$GPGSA,A,1,29,05,21,,,,,,,,,,,,*13
$GPGSV,3,1,11,29,63,069,31,21,45,190,27,05,23,063,34,24,59,086,*75
$GPGSV,3,2,11,19,44,258,,31,33,216,28,30,12,131,,13,04,349,*79
$GPGSV,3,3,11,23,04,301,,10,01,016,,12,01,129,*41
$GPRMC,084442.963,V,5109.8239,N,01653.4231,E,,,161013,,,N*78
$GPGGA,084443.963,5109.8241,N,01653.4227,E,0,03,,-42.7,M,42.7,M,,0000*6E
$GPGLL,5109.8241,N,01653.4227,E,084443.963,V,N*42
$GPGSA,A,1,29,05,21,,,,,,,,,,,,*13
$GPRMC,084443.963,V,5109.8241,N,01653.4227,E,,,161013,,,N*71
$GPGGA,084444.963,5109.8243,N,01653.4223,E,0,03,,-42.7,M,42.7,M,,0000*6F
$GPGLL,5109.8243,N,01653.4223,E,084444.963,V,N*43
$GPGSA,A,1,29,05,21,,,,,,,,,,,,*13
$GPRMC,084444.963,V,5109.8243,N,01653.4223,E,,,161013,,,N*70
$GPGGA,084445.963,5109.8243,N,01653.4222,E,0,03,,-42.7,M,42.7,M,,0000*6F
$GPGLL,5109.8243,N,01653.4222,E,084445.963,V,N*43
$GPGSA,A,1,29,05,21,,,,,,,,,,,,*13
$GPRMC,084445.963,V,5109.8243,N,01653.4222,E,,,161013,,,N*70
$GPGGA,084446.963,5109.8244,N,01653.4219,E,0,03,,-42.7,M,42.7,M,,0000*63
$GPGLL,5109.8244,N,01653.4219,E,084446.963,V,N*4F
$GPGSA,A,1,29,05,21,,,,,,,,,,,,*13
$GPRMC,084446.963,V,5109.8244,N,01653.4219,E,,,161013,,,N*7C
$GPGGA,084447.963,5109.8245,N,01653.4217,E,0,03,,-42.7,M,42.7,M,,0000*6D
$GPGLL,5109.8245,N,01653.4217,E,084447.963,V,N*41
$GPGSA,A,1,29,05,21,,,,,,,,,,,,*13
$GPGSV,3,1,11,29,63,069,31,21,45,190,27,05,23,063,35,24,59,085,*77
$GPGSV,3,2,11,19,44,258,,31,33,216,28,30,12,131,,13,04,349,*79